<?xml version="1.0" encoding="UTF-8"?>
<kml xmlns="http://www.opengis.net/kml/2.2">
<Document><Folder>
<Placemark>
<name><![CDATA[Ariel_University]]></name>
<description>WIFI</description>
<Point><coordinates>35.21134308,32.10487307,692</coordinates></Point>
<time>2017-12-03 08:53:08</time></Placemark>
<Placemark>
<name><![CDATA[Ariel_University]]></name>
<description>WIFI</description>
<Point><coordinates>35.21134308,32.10487307,692</coordinates></Point>
<time>2017-12-03 08:53:08</time></Placemark>
<Placemark>
<name><![CDATA[Ariel_University]]></name>
<description>WIFI</description>
<Point><coordinates>35.21107852,32.1050222,689</coordinates></Point>
<time>2017-12-03 08:53:24</time></Placemark>
<Placemark>
<name><![CDATA[Ariel_University]]></name>
<description>WIFI</description>
<Point><coordinates>35.21107852,32.1050222,689</coordinates></Point>
<time>2017-12-03 08:53:24</time></Placemark>
<Placemark>
<name><![CDATA[Ariel_University]]></name>
<description>WIFI</description>
<Point><coordinates>35.21092655,32.10503208,687</coordinates></Point>
<time>2017-12-03 08:53:27</time></Placemark>
<Placemark>
<name><![CDATA[Ariel_University]]></name>
<description>WIFI</description>
<Point><coordinates>35.21060853,32.10495375,686</coordinates></Point>
<time>2017-12-03 08:53:33</time></Placemark>
<Placemark>
<name><![CDATA[Ariel_University]]></name>
<description>WIFI</description>
<Point><coordinates>35.21044203,32.10490203,686</coordinates></Point>
<time>2017-12-03 08:53:36</time></Placemark>
<Placemark>
<name><![CDATA[Ariel_University]]></name>
<description>WIFI</description>
<Point><coordinates>35.21044203,32.10490203,686</coordinates></Point>
<time>2017-12-03 08:53:36</time></Placemark>
<Placemark>
<name><![CDATA[Ariel_University]]></name>
<description>WIFI</description>
<Point><coordinates>35.21044203,32.10490203,686</coordinates></Point>
<time>2017-12-03 08:53:36</time></Placemark>
<Placemark>
<name><![CDATA[yosh]]></name>
<description>WIFI</description>
<Point><coordinates>35.21044203,32.10490203,686</coordinates></Point>
<time>2017-12-03 08:53:36</time></Placemark>
<Placemark>
<name><![CDATA[Ariel_University]]></name>
<description>WIFI</description>
<Point><coordinates>35.21044203,32.10490203,686</coordinates></Point>
<time>2017-12-03 08:53:36</time></Placemark>
<Placemark>
<name><![CDATA[Ariel_University]]></name>
<description>WIFI</description>
<Point><coordinates>35.21025994,32.1048406,688</coordinates></Point>
<time>2017-12-03 08:53:39</time></Placemark>
<Placemark>
<name><![CDATA[Ariel_University]]></name>
<description>WIFI</description>
<Point><coordinates>35.21025994,32.1048406,688</coordinates></Point>
<time>2017-12-03 08:53:39</time></Placemark>
<Placemark>
<name><![CDATA[Ariel_University]]></name>
<description>WIFI</description>
<Point><coordinates>35.21025994,32.1048406,688</coordinates></Point>
<time>2017-12-03 08:53:39</time></Placemark>
<Placemark>
<name><![CDATA[Ariel_University]]></name>
<description>WIFI</description>
<Point><coordinates>35.21025994,32.1048406,688</coordinates></Point>
<time>2017-12-03 08:53:39</time></Placemark>
<Placemark>
<name><![CDATA[outsense]]></name>
<description>WIFI</description>
<Point><coordinates>35.21025994,32.1048406,688</coordinates></Point>
<time>2017-12-03 08:53:39</time></Placemark>
<Placemark>
<name><![CDATA[Guest]]></name>
<description>WIFI</description>
<Point><coordinates>35.21025994,32.1048406,688</coordinates></Point>
<time>2017-12-03 08:53:39</time></Placemark>
<Placemark>
<name><![CDATA[shapedo]]></name>
<description>WIFI</description>
<Point><coordinates>35.21025994,32.1048406,688</coordinates></Point>
<time>2017-12-03 08:53:39</time></Placemark>
<Placemark>
<name><![CDATA[EVE]]></name>
<description>WIFI</description>
<Point><coordinates>35.21025994,32.1048406,688</coordinates></Point>
<time>2017-12-03 08:53:39</time></Placemark>
<Placemark>
<name><![CDATA[Ariel_University]]></name>
<description>WIFI</description>
<Point><coordinates>35.21007474,32.10475343,689</coordinates></Point>
<time>2017-12-03 08:53:42</time></Placemark>
<Placemark>
<name><![CDATA[Ariel_University]]></name>
<description>WIFI</description>
<Point><coordinates>35.21007474,32.10475343,689</coordinates></Point>
<time>2017-12-03 08:53:42</time></Placemark>
<Placemark>
<name><![CDATA[Ariel_University]]></name>
<description>WIFI</description>
<Point><coordinates>35.21007474,32.10475343,689</coordinates></Point>
<time>2017-12-03 08:53:42</time></Placemark>
<Placemark>
<name><![CDATA[outsense]]></name>
<description>WIFI</description>
<Point><coordinates>35.21007474,32.10475343,689</coordinates></Point>
<time>2017-12-03 08:53:42</time></Placemark>
<Placemark>
<name><![CDATA[Guest]]></name>
<description>WIFI</description>
<Point><coordinates>35.21007474,32.10475343,689</coordinates></Point>
<time>2017-12-03 08:53:42</time></Placemark>
<Placemark>
<name><![CDATA[Afikim_Wifi]]></name>
<description>WIFI</description>
<Point><coordinates>35.21007474,32.10475343,689</coordinates></Point>
<time>2017-12-03 08:53:42</time></Placemark>
<Placemark>
<name><![CDATA[TP-LINK_ADD150]]></name>
<description>WIFI</description>
<Point><coordinates>35.21007474,32.10475343,689</coordinates></Point>
<time>2017-12-03 08:53:42</time></Placemark>
<Placemark>
<name><![CDATA[Ariel_University]]></name>
<description>WIFI</description>
<Point><coordinates>35.20990936,32.10466627,687</coordinates></Point>
<time>2017-12-03 08:53:45</time></Placemark>
<Placemark>
<name><![CDATA[Ariel_University]]></name>
<description>WIFI</description>
<Point><coordinates>35.20990936,32.10466627,687</coordinates></Point>
<time>2017-12-03 08:53:45</time></Placemark>
<Placemark>
<name><![CDATA[outsense]]></name>
<description>WIFI</description>
<Point><coordinates>35.20990936,32.10466627,687</coordinates></Point>
<time>2017-12-03 08:53:45</time></Placemark>
<Placemark>
<name><![CDATA[EVE]]></name>
<description>WIFI</description>
<Point><coordinates>35.20990936,32.10466627,687</coordinates></Point>
<time>2017-12-03 08:53:45</time></Placemark>
<Placemark>
<name><![CDATA[Guest]]></name>
<description>WIFI</description>
<Point><coordinates>35.20990936,32.10466627,687</coordinates></Point>
<time>2017-12-03 08:53:45</time></Placemark>
<Placemark>
<name><![CDATA[incentive2]]></name>
<description>WIFI</description>
<Point><coordinates>35.20990936,32.10466627,687</coordinates></Point>
<time>2017-12-03 08:53:45</time></Placemark>
<Placemark>
<name><![CDATA[DIRECT-B1-HP DeskJet 3830 series]]></name>
<description>WIFI</description>
<Point><coordinates>35.20990936,32.10466627,687</coordinates></Point>
<time>2017-12-03 08:53:45</time></Placemark>
<Placemark>
<name><![CDATA[]]></name>
<description>WIFI</description>
<Point><coordinates>35.20990936,32.10466627,687</coordinates></Point>
<time>2017-12-03 08:53:45</time></Placemark>
<Placemark>
<name><![CDATA[TP-LINK_ADD150]]></name>
<description>WIFI</description>
<Point><coordinates>35.20975804,32.10457483,687</coordinates></Point>
<time>2017-12-03 08:53:48</time></Placemark>
<Placemark>
<name><![CDATA[Ariel_University]]></name>
<description>WIFI</description>
<Point><coordinates>35.20975804,32.10457483,687</coordinates></Point>
<time>2017-12-03 08:53:48</time></Placemark>
<Placemark>
<name><![CDATA[CliClap]]></name>
<description>WIFI</description>
<Point><coordinates>35.20960715,32.10448173,687</coordinates></Point>
<time>2017-12-03 08:53:51</time></Placemark>
<Placemark>
<name><![CDATA[Ariel_University]]></name>
<description>WIFI</description>
<Point><coordinates>35.20960715,32.10448173,687</coordinates></Point>
<time>2017-12-03 08:53:51</time></Placemark>
<Placemark>
<name><![CDATA[artsim]]></name>
<description>WIFI</description>
<Point><coordinates>35.20946023,32.10440239,687</coordinates></Point>
<time>2017-12-03 08:53:54</time></Placemark>
<Placemark>
<name><![CDATA[Ariel_University]]></name>
<description>WIFI</description>
<Point><coordinates>35.20946023,32.10440239,687</coordinates></Point>
<time>2017-12-03 08:53:54</time></Placemark>
<Placemark>
<name><![CDATA[Ariel_University]]></name>
<description>WIFI</description>
<Point><coordinates>35.20946023,32.10440239,687</coordinates></Point>
<time>2017-12-03 08:53:54</time></Placemark>
<Placemark>
<name><![CDATA[Ariel_University]]></name>
<description>WIFI</description>
<Point><coordinates>35.20932755,32.10430866,687</coordinates></Point>
<time>2017-12-03 08:53:57</time></Placemark>
<Placemark>
<name><![CDATA[shapedo]]></name>
<description>WIFI</description>
<Point><coordinates>35.20917533,32.10419361,685</coordinates></Point>
<time>2017-12-03 08:54:00</time></Placemark>
<Placemark>
<name><![CDATA[Ariel_University]]></name>
<description>WIFI</description>
<Point><coordinates>35.20917533,32.10419361,685</coordinates></Point>
<time>2017-12-03 08:54:00</time></Placemark>
<Placemark>
<name><![CDATA[paysday]]></name>
<description>WIFI</description>
<Point><coordinates>35.20917533,32.10419361,685</coordinates></Point>
<time>2017-12-03 08:54:00</time></Placemark>
<Placemark>
<name><![CDATA[Ariel_University]]></name>
<description>WIFI</description>
<Point><coordinates>35.20917533,32.10419361,685</coordinates></Point>
<time>2017-12-03 08:54:00</time></Placemark>
<Placemark>
<name><![CDATA[Ariel_University]]></name>
<description>WIFI</description>
<Point><coordinates>35.20917533,32.10419361,685</coordinates></Point>
<time>2017-12-03 08:54:00</time></Placemark>
<Placemark>
<name><![CDATA[Ariel_University]]></name>
<description>WIFI</description>
<Point><coordinates>35.20917533,32.10419361,685</coordinates></Point>
<time>2017-12-03 08:54:00</time></Placemark>
<Placemark>
<name><![CDATA[]]></name>
<description>WIFI</description>
<Point><coordinates>35.20917533,32.10419361,685</coordinates></Point>
<time>2017-12-03 08:54:00</time></Placemark>
<Placemark>
<name><![CDATA[Ariel_University]]></name>
<description>WIFI</description>
<Point><coordinates>35.20902709,32.10406321,685</coordinates></Point>
<time>2017-12-03 08:54:03</time></Placemark>
<Placemark>
<name><![CDATA[magneto]]></name>
<description>WIFI</description>
<Point><coordinates>35.20902709,32.10406321,685</coordinates></Point>
<time>2017-12-03 08:54:03</time></Placemark>
<Placemark>
<name><![CDATA[Ariel_University]]></name>
<description>WIFI</description>
<Point><coordinates>35.20902709,32.10406321,685</coordinates></Point>
<time>2017-12-03 08:54:03</time></Placemark>
<Placemark>
<name><![CDATA[paysday]]></name>
<description>WIFI</description>
<Point><coordinates>35.20902709,32.10406321,685</coordinates></Point>
<time>2017-12-03 08:54:03</time></Placemark>
<Placemark>
<name><![CDATA[sinusafe]]></name>
<description>WIFI</description>
<Point><coordinates>35.20902709,32.10406321,685</coordinates></Point>
<time>2017-12-03 08:54:03</time></Placemark>
<Placemark>
<name><![CDATA[Ariel_University]]></name>
<description>WIFI</description>
<Point><coordinates>35.20902709,32.10406321,685</coordinates></Point>
<time>2017-12-03 08:54:03</time></Placemark>
<Placemark>
<name><![CDATA[Ariel_University]]></name>
<description>WIFI</description>
<Point><coordinates>35.20902709,32.10406321,685</coordinates></Point>
<time>2017-12-03 08:54:03</time></Placemark>
<Placemark>
<name><![CDATA[Ariel_University]]></name>
<description>WIFI</description>
<Point><coordinates>35.20902709,32.10406321,685</coordinates></Point>
<time>2017-12-03 08:54:03</time></Placemark>
<Placemark>
<name><![CDATA[Ariel_University]]></name>
<description>WIFI</description>
<Point><coordinates>35.20892354,32.10391893,686</coordinates></Point>
<time>2017-12-03 08:54:06</time></Placemark>
<Placemark>
<name><![CDATA[Ariel_University]]></name>
<description>WIFI</description>
<Point><coordinates>35.20883622,32.10376365,686</coordinates></Point>
<time>2017-12-03 08:54:09</time></Placemark>
<Placemark>
<name><![CDATA[Ariel_University]]></name>
<description>WIFI</description>
<Point><coordinates>35.20883622,32.10376365,686</coordinates></Point>
<time>2017-12-03 08:54:09</time></Placemark>
<Placemark>
<name><![CDATA[Ariel_University]]></name>
<description>WIFI</description>
<Point><coordinates>35.20883622,32.10376365,686</coordinates></Point>
<time>2017-12-03 08:54:09</time></Placemark>
<Placemark>
<name><![CDATA[Ariel_University]]></name>
<description>WIFI</description>
<Point><coordinates>35.20883622,32.10376365,686</coordinates></Point>
<time>2017-12-03 08:54:09</time></Placemark>
<Placemark>
<name><![CDATA[Ariel_University]]></name>
<description>WIFI</description>
<Point><coordinates>35.20878096,32.10359721,686</coordinates></Point>
<time>2017-12-03 08:54:12</time></Placemark>
<Placemark>
<name><![CDATA[Ariel_University]]></name>
<description>WIFI</description>
<Point><coordinates>35.20878096,32.10359721,686</coordinates></Point>
<time>2017-12-03 08:54:12</time></Placemark>
<Placemark>
<name><![CDATA[CliClap]]></name>
<description>WIFI</description>
<Point><coordinates>35.20875946,32.10346795,686</coordinates></Point>
<time>2017-12-03 08:54:15</time></Placemark>
<Placemark>
<name><![CDATA[Ariel_University]]></name>
<description>WIFI</description>
<Point><coordinates>35.20875946,32.10346795,686</coordinates></Point>
<time>2017-12-03 08:54:15</time></Placemark>
<Placemark>
<name><![CDATA[Ariel_University]]></name>
<description>WIFI</description>
<Point><coordinates>35.20875946,32.10346795,686</coordinates></Point>
<time>2017-12-03 08:54:15</time></Placemark>
<Placemark>
<name><![CDATA[Ariel_University]]></name>
<description>WIFI</description>
<Point><coordinates>35.20875946,32.10346795,686</coordinates></Point>
<time>2017-12-03 08:54:15</time></Placemark>
<Placemark>
<name><![CDATA[Ariel_University]]></name>
<description>WIFI</description>
<Point><coordinates>35.20874462,32.10333565,687</coordinates></Point>
<time>2017-12-03 08:54:18</time></Placemark>
<Placemark>
<name><![CDATA[Ariel_University]]></name>
<description>WIFI</description>
<Point><coordinates>35.20874462,32.10333565,687</coordinates></Point>
<time>2017-12-03 08:54:18</time></Placemark>
<Placemark>
<name><![CDATA[Ariel_University]]></name>
<description>WIFI</description>
<Point><coordinates>35.20874462,32.10333565,687</coordinates></Point>
<time>2017-12-03 08:54:18</time></Placemark>
<Placemark>
<name><![CDATA[Ariel_University]]></name>
<description>WIFI</description>
<Point><coordinates>35.20874462,32.10333565,687</coordinates></Point>
<time>2017-12-03 08:54:18</time></Placemark>
<Placemark>
<name><![CDATA[Ariel_University]]></name>
<description>WIFI</description>
<Point><coordinates>35.20873143,32.10318952,684</coordinates></Point>
<time>2017-12-03 08:54:21</time></Placemark>
<Placemark>
<name><![CDATA[Ariel_University]]></name>
<description>WIFI</description>
<Point><coordinates>35.20873143,32.10318952,684</coordinates></Point>
<time>2017-12-03 08:54:21</time></Placemark>
<Placemark>
<name><![CDATA[Ariel_University]]></name>
<description>WIFI</description>
<Point><coordinates>35.20873143,32.10318952,684</coordinates></Point>
<time>2017-12-03 08:54:21</time></Placemark>
<Placemark>
<name><![CDATA[]]></name>
<description>WIFI</description>
<Point><coordinates>35.20873143,32.10318952,684</coordinates></Point>
<time>2017-12-03 08:54:21</time></Placemark>
<Placemark>
<name><![CDATA[Ariel_University]]></name>
<description>WIFI</description>
<Point><coordinates>35.20873143,32.10318952,684</coordinates></Point>
<time>2017-12-03 08:54:21</time></Placemark>
<Placemark>
<name><![CDATA[Ariel_University]]></name>
<description>WIFI</description>
<Point><coordinates>35.20873143,32.10318952,684</coordinates></Point>
<time>2017-12-03 08:54:21</time></Placemark>
<Placemark>
<name><![CDATA[Ariel_University]]></name>
<description>WIFI</description>
<Point><coordinates>35.20873143,32.10318952,684</coordinates></Point>
<time>2017-12-03 08:54:21</time></Placemark>
<Placemark>
<name><![CDATA[Ariel_University]]></name>
<description>WIFI</description>
<Point><coordinates>35.20873143,32.10318952,684</coordinates></Point>
<time>2017-12-03 08:54:21</time></Placemark>
<Placemark>
<name><![CDATA[Ariel_University]]></name>
<description>WIFI</description>
<Point><coordinates>35.20871988,32.10301827,685</coordinates></Point>
<time>2017-12-03 08:54:24</time></Placemark>
<Placemark>
<name><![CDATA[Ariel_University]]></name>
<description>WIFI</description>
<Point><coordinates>35.20871988,32.10301827,685</coordinates></Point>
<time>2017-12-03 08:54:24</time></Placemark>
<Placemark>
<name><![CDATA[Ariel_University]]></name>
<description>WIFI</description>
<Point><coordinates>35.20871988,32.10301827,685</coordinates></Point>
<time>2017-12-03 08:54:24</time></Placemark>
<Placemark>
<name><![CDATA[Ariel_University]]></name>
<description>WIFI</description>
<Point><coordinates>35.20871988,32.10301827,685</coordinates></Point>
<time>2017-12-03 08:54:24</time></Placemark>
<Placemark>
<name><![CDATA[Ariel_University]]></name>
<description>WIFI</description>
<Point><coordinates>35.20871988,32.10301827,685</coordinates></Point>
<time>2017-12-03 08:54:24</time></Placemark>
<Placemark>
<name><![CDATA[Ariel_University]]></name>
<description>WIFI</description>
<Point><coordinates>35.20871899,32.10282362,688</coordinates></Point>
<time>2017-12-03 08:54:27</time></Placemark>
<Placemark>
<name><![CDATA[Ariel_University]]></name>
<description>WIFI</description>
<Point><coordinates>35.20871899,32.10282362,688</coordinates></Point>
<time>2017-12-03 08:54:27</time></Placemark>
<Placemark>
<name><![CDATA[Ariel_University]]></name>
<description>WIFI</description>
<Point><coordinates>35.20871899,32.10282362,688</coordinates></Point>
<time>2017-12-03 08:54:27</time></Placemark>
<Placemark>
<name><![CDATA[HelpDesk]]></name>
<description>WIFI</description>
<Point><coordinates>35.20871899,32.10282362,688</coordinates></Point>
<time>2017-12-03 08:54:27</time></Placemark>
<Placemark>
<name><![CDATA[]]></name>
<description>WIFI</description>
<Point><coordinates>35.20871899,32.10282362,688</coordinates></Point>
<time>2017-12-03 08:54:27</time></Placemark>
<Placemark>
<name><![CDATA[Ariel_University]]></name>
<description>WIFI</description>
<Point><coordinates>35.20871899,32.10282362,688</coordinates></Point>
<time>2017-12-03 08:54:27</time></Placemark>
<Placemark>
<name><![CDATA[Ariel_University]]></name>
<description>WIFI</description>
<Point><coordinates>35.20871899,32.10282362,688</coordinates></Point>
<time>2017-12-03 08:54:27</time></Placemark>
<Placemark>
<name><![CDATA[Ariel_University]]></name>
<description>WIFI</description>
<Point><coordinates>35.20871899,32.10282362,688</coordinates></Point>
<time>2017-12-03 08:54:27</time></Placemark>
<Placemark>
<name><![CDATA[Ariel_University]]></name>
<description>WIFI</description>
<Point><coordinates>35.20876629,32.10263124,687</coordinates></Point>
<time>2017-12-03 08:54:30</time></Placemark>
<Placemark>
<name><![CDATA[Bezeq Free]]></name>
<description>WIFI</description>
<Point><coordinates>35.20876629,32.10263124,687</coordinates></Point>
<time>2017-12-03 08:54:30</time></Placemark>
<Placemark>
<name><![CDATA[036518749]]></name>
<description>WIFI</description>
<Point><coordinates>35.20876629,32.10263124,687</coordinates></Point>
<time>2017-12-03 08:54:30</time></Placemark>
<Placemark>
<name><![CDATA[Ariel_University]]></name>
<description>WIFI</description>
<Point><coordinates>35.20876629,32.10263124,687</coordinates></Point>
<time>2017-12-03 08:54:30</time></Placemark>
<Placemark>
<name><![CDATA[Ariel_University]]></name>
<description>WIFI</description>
<Point><coordinates>35.20876629,32.10263124,687</coordinates></Point>
<time>2017-12-03 08:54:30</time></Placemark>
<Placemark>
<name><![CDATA[Ariel_University]]></name>
<description>WIFI</description>
<Point><coordinates>35.20876629,32.10263124,687</coordinates></Point>
<time>2017-12-03 08:54:30</time></Placemark>
<Placemark>
<name><![CDATA[Ariel_University]]></name>
<description>WIFI</description>
<Point><coordinates>35.20884914,32.10244119,686</coordinates></Point>
<time>2017-12-03 08:54:33</time></Placemark>
<Placemark>
<name><![CDATA[Ariel_University]]></name>
<description>WIFI</description>
<Point><coordinates>35.20884914,32.10244119,686</coordinates></Point>
<time>2017-12-03 08:54:33</time></Placemark>
<Placemark>
<name><![CDATA[Ariel_University]]></name>
<description>WIFI</description>
<Point><coordinates>35.20884914,32.10244119,686</coordinates></Point>
<time>2017-12-03 08:54:33</time></Placemark>
<Placemark>
<name><![CDATA[Ariel_University]]></name>
<description>WIFI</description>
<Point><coordinates>35.20884914,32.10244119,686</coordinates></Point>
<time>2017-12-03 08:54:33</time></Placemark>
<Placemark>
<name><![CDATA[Ariel_University]]></name>
<description>WIFI</description>
<Point><coordinates>35.20884914,32.10244119,686</coordinates></Point>
<time>2017-12-03 08:54:33</time></Placemark>
<Placemark>
<name><![CDATA[Ariel_University]]></name>
<description>WIFI</description>
<Point><coordinates>35.20884914,32.10244119,686</coordinates></Point>
<time>2017-12-03 08:54:33</time></Placemark>
<Placemark>
<name><![CDATA[Ariel_University]]></name>
<description>WIFI</description>
<Point><coordinates>35.20894955,32.1022576,688</coordinates></Point>
<time>2017-12-03 08:54:36</time></Placemark>
<Placemark>
<name><![CDATA[Ariel_University]]></name>
<description>WIFI</description>
<Point><coordinates>35.20894955,32.1022576,688</coordinates></Point>
<time>2017-12-03 08:54:36</time></Placemark>
<Placemark>
<name><![CDATA[Ariel_University]]></name>
<description>WIFI</description>
<Point><coordinates>35.20894955,32.1022576,688</coordinates></Point>
<time>2017-12-03 08:54:36</time></Placemark>
<Placemark>
<name><![CDATA[Bezeq Free]]></name>
<description>WIFI</description>
<Point><coordinates>35.20894955,32.1022576,688</coordinates></Point>
<time>2017-12-03 08:54:36</time></Placemark>
<Placemark>
<name><![CDATA[Ariel_University]]></name>
<description>WIFI</description>
<Point><coordinates>35.20894955,32.1022576,688</coordinates></Point>
<time>2017-12-03 08:54:36</time></Placemark>
<Placemark>
<name><![CDATA[Ariel_University]]></name>
<description>WIFI</description>
<Point><coordinates>35.20894955,32.1022576,688</coordinates></Point>
<time>2017-12-03 08:54:36</time></Placemark>
<Placemark>
<name><![CDATA[Ariel_University]]></name>
<description>WIFI</description>
<Point><coordinates>35.20912829,32.10212198,688</coordinates></Point>
<time>2017-12-03 08:54:39</time></Placemark>
<Placemark>
<name><![CDATA[Ariel_University]]></name>
<description>WIFI</description>
<Point><coordinates>35.20912829,32.10212198,688</coordinates></Point>
<time>2017-12-03 08:54:39</time></Placemark>
<Placemark>
<name><![CDATA[Ariel_University]]></name>
<description>WIFI</description>
<Point><coordinates>35.20912829,32.10212198,688</coordinates></Point>
<time>2017-12-03 08:54:39</time></Placemark>
<Placemark>
<name><![CDATA[lab_6.1.3]]></name>
<description>WIFI</description>
<Point><coordinates>35.20912829,32.10212198,688</coordinates></Point>
<time>2017-12-03 08:54:39</time></Placemark>
<Placemark>
<name><![CDATA[Ariel_University]]></name>
<description>WIFI</description>
<Point><coordinates>35.20935702,32.1020322,689</coordinates></Point>
<time>2017-12-03 08:54:42</time></Placemark>
<Placemark>
<name><![CDATA[Ariel_University]]></name>
<description>WIFI</description>
<Point><coordinates>35.20935702,32.1020322,689</coordinates></Point>
<time>2017-12-03 08:54:42</time></Placemark>
<Placemark>
<name><![CDATA[Ariel_University]]></name>
<description>WIFI</description>
<Point><coordinates>35.20960153,32.10196459,690</coordinates></Point>
<time>2017-12-03 08:54:45</time></Placemark>
<Placemark>
<name><![CDATA[Ariel_University]]></name>
<description>WIFI</description>
<Point><coordinates>35.2098381,32.10199722,693</coordinates></Point>
<time>2017-12-03 08:54:48</time></Placemark>
<Placemark>
<name><![CDATA[Ariel_University]]></name>
<description>WIFI</description>
<Point><coordinates>35.2098381,32.10199722,693</coordinates></Point>
<time>2017-12-03 08:54:48</time></Placemark>
<Placemark>
<name><![CDATA[HelpDesk]]></name>
<description>WIFI</description>
<Point><coordinates>35.2098381,32.10199722,693</coordinates></Point>
<time>2017-12-03 08:54:48</time></Placemark>
<Placemark>
<name><![CDATA[036518749]]></name>
<description>WIFI</description>
<Point><coordinates>35.2098381,32.10199722,693</coordinates></Point>
<time>2017-12-03 08:54:48</time></Placemark>
<Placemark>
<name><![CDATA[Ariel_University]]></name>
<description>WIFI</description>
<Point><coordinates>35.2098381,32.10199722,693</coordinates></Point>
<time>2017-12-03 08:54:48</time></Placemark>
<Placemark>
<name><![CDATA[Ariel_University]]></name>
<description>WIFI</description>
<Point><coordinates>35.2098381,32.10199722,693</coordinates></Point>
<time>2017-12-03 08:54:48</time></Placemark>
<Placemark>
<name><![CDATA[yosh]]></name>
<description>WIFI</description>
<Point><coordinates>35.2098381,32.10199722,693</coordinates></Point>
<time>2017-12-03 08:54:48</time></Placemark>
<Placemark>
<name><![CDATA[Ariel_University]]></name>
<description>WIFI</description>
<Point><coordinates>35.20998301,32.10212708,692</coordinates></Point>
<time>2017-12-03 08:54:51</time></Placemark>
<Placemark>
<name><![CDATA[Bezeq Free]]></name>
<description>WIFI</description>
<Point><coordinates>35.20998301,32.10212708,692</coordinates></Point>
<time>2017-12-03 08:54:51</time></Placemark>
<Placemark>
<name><![CDATA[Ariel_University]]></name>
<description>WIFI</description>
<Point><coordinates>35.20998301,32.10212708,692</coordinates></Point>
<time>2017-12-03 08:54:51</time></Placemark>
<Placemark>
<name><![CDATA[Ariel_University]]></name>
<description>WIFI</description>
<Point><coordinates>35.20998301,32.10212708,692</coordinates></Point>
<time>2017-12-03 08:54:51</time></Placemark>
<Placemark>
<name><![CDATA[KCG-ADSL]]></name>
<description>WIFI</description>
<Point><coordinates>35.21003281,32.10226153,694</coordinates></Point>
<time>2017-12-03 08:54:54</time></Placemark>
<Placemark>
<name><![CDATA[KCG-ADSL]]></name>
<description>WIFI</description>
<Point><coordinates>35.20983303,32.10290524,694</coordinates></Point>
<time>2017-12-03 08:55:11</time></Placemark>
<Placemark>
<name><![CDATA[Ariel_University]]></name>
<description>WIFI</description>
<Point><coordinates>35.20983303,32.10290524,694</coordinates></Point>
<time>2017-12-03 08:55:11</time></Placemark>
<Placemark>
<name><![CDATA[Ariel_University]]></name>
<description>WIFI</description>
<Point><coordinates>35.20983303,32.10290524,694</coordinates></Point>
<time>2017-12-03 08:55:11</time></Placemark>
<Placemark>
<name><![CDATA[Ariel_University]]></name>
<description>WIFI</description>
<Point><coordinates>35.20983303,32.10290524,694</coordinates></Point>
<time>2017-12-03 08:55:11</time></Placemark>
<Placemark>
<name><![CDATA[Ariel_University]]></name>
<description>WIFI</description>
<Point><coordinates>35.20978446,32.10305306,693</coordinates></Point>
<time>2017-12-03 08:55:15</time></Placemark>
<Placemark>
<name><![CDATA[Ariel_University]]></name>
<description>WIFI</description>
<Point><coordinates>35.20978446,32.10305306,693</coordinates></Point>
<time>2017-12-03 08:55:15</time></Placemark>
<Placemark>
<name><![CDATA[Ariel_University]]></name>
<description>WIFI</description>
<Point><coordinates>35.20978446,32.10305306,693</coordinates></Point>
<time>2017-12-03 08:55:15</time></Placemark>
<Placemark>
<name><![CDATA[2.4V1]]></name>
<description>WIFI</description>
<Point><coordinates>35.20978446,32.10305306,693</coordinates></Point>
<time>2017-12-03 08:55:15</time></Placemark>
<Placemark>
<name><![CDATA[Ariel_University]]></name>
<description>WIFI</description>
<Point><coordinates>35.20978446,32.10305306,693</coordinates></Point>
<time>2017-12-03 08:55:15</time></Placemark>
<Placemark>
<name><![CDATA[Ariel_University]]></name>
<description>WIFI</description>
<Point><coordinates>35.20978446,32.10305306,693</coordinates></Point>
<time>2017-12-03 08:55:15</time></Placemark>
<Placemark>
<name><![CDATA[Ariel_University]]></name>
<description>WIFI</description>
<Point><coordinates>35.20978446,32.10305306,693</coordinates></Point>
<time>2017-12-03 08:55:15</time></Placemark>
<Placemark>
<name><![CDATA[lab_6.1.3]]></name>
<description>WIFI</description>
<Point><coordinates>35.20977295,32.10314139,693</coordinates></Point>
<time>2017-12-03 08:55:17</time></Placemark>
<Placemark>
<name><![CDATA[Ariel_University]]></name>
<description>WIFI</description>
<Point><coordinates>35.20979335,32.10330416,695</coordinates></Point>
<time>2017-12-03 08:55:20</time></Placemark>
<Placemark>
<name><![CDATA[Ariel_University]]></name>
<description>WIFI</description>
<Point><coordinates>35.20979335,32.10330416,695</coordinates></Point>
<time>2017-12-03 08:55:20</time></Placemark>
<Placemark>
<name><![CDATA[Ariel_University]]></name>
<description>WIFI</description>
<Point><coordinates>35.20979335,32.10330416,695</coordinates></Point>
<time>2017-12-03 08:55:20</time></Placemark>
<Placemark>
<name><![CDATA[Ariel_University]]></name>
<description>WIFI</description>
<Point><coordinates>35.20979335,32.10330416,695</coordinates></Point>
<time>2017-12-03 08:55:20</time></Placemark>
<Placemark>
<name><![CDATA[AUC_4_2_24]]></name>
<description>WIFI</description>
<Point><coordinates>35.20992695,32.10357832,694</coordinates></Point>
<time>2017-12-03 08:55:25</time></Placemark>
<Placemark>
<name><![CDATA[Ariel_University]]></name>
<description>WIFI</description>
<Point><coordinates>35.20992695,32.10357832,694</coordinates></Point>
<time>2017-12-03 08:55:25</time></Placemark>
<Placemark>
<name><![CDATA[Ariel_University]]></name>
<description>WIFI</description>
<Point><coordinates>35.21019984,32.10379261,694</coordinates></Point>
<time>2017-12-03 08:55:30</time></Placemark>
<Placemark>
<name><![CDATA[Ariel_University]]></name>
<description>WIFI</description>
<Point><coordinates>35.21019984,32.10379261,694</coordinates></Point>
<time>2017-12-03 08:55:30</time></Placemark>
<Placemark>
<name><![CDATA[Ariel_University]]></name>
<description>WIFI</description>
<Point><coordinates>35.21019984,32.10379261,694</coordinates></Point>
<time>2017-12-03 08:55:30</time></Placemark>
<Placemark>
<name><![CDATA[Ariel_University]]></name>
<description>WIFI</description>
<Point><coordinates>35.21019984,32.10379261,694</coordinates></Point>
<time>2017-12-03 08:55:30</time></Placemark>
<Placemark>
<name><![CDATA[Ariel_University]]></name>
<description>WIFI</description>
<Point><coordinates>35.21019984,32.10379261,694</coordinates></Point>
<time>2017-12-03 08:55:30</time></Placemark>
<Placemark>
<name><![CDATA[Ariel_University]]></name>
<description>WIFI</description>
<Point><coordinates>35.21019984,32.10379261,694</coordinates></Point>
<time>2017-12-03 08:55:30</time></Placemark>
<Placemark>
<name><![CDATA[KCG-ADSL]]></name>
<description>WIFI</description>
<Point><coordinates>35.21040928,32.10392655,695</coordinates></Point>
<time>2017-12-03 08:55:33</time></Placemark>
<Placemark>
<name><![CDATA[Ariel_University]]></name>
<description>WIFI</description>
<Point><coordinates>35.21040928,32.10392655,695</coordinates></Point>
<time>2017-12-03 08:55:33</time></Placemark>
<Placemark>
<name><![CDATA[Ariel_University]]></name>
<description>WIFI</description>
<Point><coordinates>35.21040928,32.10392655,695</coordinates></Point>
<time>2017-12-03 08:55:33</time></Placemark>
<Placemark>
<name><![CDATA[Ariel_University]]></name>
<description>WIFI</description>
<Point><coordinates>35.21040928,32.10392655,695</coordinates></Point>
<time>2017-12-03 08:55:33</time></Placemark>
<Placemark>
<name><![CDATA[Ariel_University]]></name>
<description>WIFI</description>
<Point><coordinates>35.21064312,32.10403138,697</coordinates></Point>
<time>2017-12-03 08:55:36</time></Placemark>
<Placemark>
<name><![CDATA[Ariel_University]]></name>
<description>WIFI</description>
<Point><coordinates>35.21091349,32.10412387,700</coordinates></Point>
<time>2017-12-03 08:55:40</time></Placemark>
<Placemark>
<name><![CDATA[Ariel_University]]></name>
<description>WIFI</description>
<Point><coordinates>35.21091349,32.10412387,700</coordinates></Point>
<time>2017-12-03 08:55:40</time></Placemark>
<Placemark>
<name><![CDATA[Ariel_University]]></name>
<description>WIFI</description>
<Point><coordinates>35.21091349,32.10412387,700</coordinates></Point>
<time>2017-12-03 08:55:40</time></Placemark>
<Placemark>
<name><![CDATA[Ariel_University]]></name>
<description>WIFI</description>
<Point><coordinates>35.21091349,32.10412387,700</coordinates></Point>
<time>2017-12-03 08:55:40</time></Placemark>
<Placemark>
<name><![CDATA[AUC_4_2_24]]></name>
<description>WIFI</description>
<Point><coordinates>35.21101715,32.10415215,700</coordinates></Point>
<time>2017-12-03 08:55:42</time></Placemark>
<Placemark>
<name><![CDATA[Ariel_University]]></name>
<description>WIFI</description>
<Point><coordinates>35.21101715,32.10415215,700</coordinates></Point>
<time>2017-12-03 08:55:42</time></Placemark>
<Placemark>
<name><![CDATA[Ariel_University]]></name>
<description>WIFI</description>
<Point><coordinates>35.21118813,32.10418089,699</coordinates></Point>
<time>2017-12-03 08:55:45</time></Placemark>
<Placemark>
<name><![CDATA[Ariel_University]]></name>
<description>WIFI</description>
<Point><coordinates>35.21138319,32.10423611,700</coordinates></Point>
<time>2017-12-03 08:55:48</time></Placemark>
<Placemark>
<name><![CDATA[Ariel_University]]></name>
<description>WIFI</description>
<Point><coordinates>35.21138319,32.10423611,700</coordinates></Point>
<time>2017-12-03 08:55:48</time></Placemark>
<Placemark>
<name><![CDATA[Ariel_University]]></name>
<description>WIFI</description>
<Point><coordinates>35.21138319,32.10423611,700</coordinates></Point>
<time>2017-12-03 08:55:48</time></Placemark>
<Placemark>
<name><![CDATA[Ariel_University]]></name>
<description>WIFI</description>
<Point><coordinates>35.21138319,32.10423611,700</coordinates></Point>
<time>2017-12-03 08:55:48</time></Placemark>
<Placemark>
<name><![CDATA[Ariel_University]]></name>
<description>WIFI</description>
<Point><coordinates>35.21138319,32.10423611,700</coordinates></Point>
<time>2017-12-03 08:55:48</time></Placemark>
<Placemark>
<name><![CDATA[Ariel_University]]></name>
<description>WIFI</description>
<Point><coordinates>35.21138319,32.10423611,700</coordinates></Point>
<time>2017-12-03 08:55:48</time></Placemark>
<Placemark>
<name><![CDATA[]]></name>
<description>WIFI</description>
<Point><coordinates>35.21138319,32.10423611,700</coordinates></Point>
<time>2017-12-03 08:55:48</time></Placemark>
<Placemark>
<name><![CDATA[Ariel_University]]></name>
<description>WIFI</description>
<Point><coordinates>35.21150642,32.10434812,698</coordinates></Point>
<time>2017-12-03 08:55:51</time></Placemark>
<Placemark>
<name><![CDATA[Ariel_University]]></name>
<description>WIFI</description>
<Point><coordinates>35.21150642,32.10434812,698</coordinates></Point>
<time>2017-12-03 08:55:51</time></Placemark>
<Placemark>
<name><![CDATA[yosh]]></name>
<description>WIFI</description>
<Point><coordinates>35.21150642,32.10434812,698</coordinates></Point>
<time>2017-12-03 08:55:51</time></Placemark>
<Placemark>
<name><![CDATA[Ariel_University]]></name>
<description>WIFI</description>
<Point><coordinates>35.21158147,32.10450422,698</coordinates></Point>
<time>2017-12-03 08:55:54</time></Placemark>
<Placemark>
<name><![CDATA[IT-MNG]]></name>
<description>WIFI</description>
<Point><coordinates>35.2115156,32.10476714,696</coordinates></Point>
<time>2017-12-03 08:56:00</time></Placemark>
<Placemark>
<name><![CDATA[Ariel_University]]></name>
<description>WIFI</description>
<Point><coordinates>35.2115156,32.10476714,696</coordinates></Point>
<time>2017-12-03 08:56:00</time></Placemark>
<Placemark>
<name><![CDATA[IT-MNG]]></name>
<description>WIFI</description>
<Point><coordinates>35.2114539,32.10481492,695</coordinates></Point>
<time>2017-12-03 08:56:02</time></Placemark>
<Placemark>
<name><![CDATA[Ariel_University]]></name>
<description>WIFI</description>
<Point><coordinates>35.2114539,32.10481492,695</coordinates></Point>
<time>2017-12-03 08:56:02</time></Placemark>
<Placemark>
<name><![CDATA[Ariel_University]]></name>
<description>WIFI</description>
<Point><coordinates>35.21137457,32.10487501,697</coordinates></Point>
<time>2017-12-03 08:56:05</time></Placemark>
<Placemark>
<name><![CDATA[Ariel_University]]></name>
<description>WIFI</description>
<Point><coordinates>35.21135337,32.10488619,698</coordinates></Point>
<time>2017-12-03 08:56:08</time></Placemark>
<Placemark>
<name><![CDATA[Ariel_University]]></name>
<description>WIFI</description>
<Point><coordinates>35.21135337,32.10488619,698</coordinates></Point>
<time>2017-12-03 08:56:08</time></Placemark>
<Placemark>
<name><![CDATA[Ariel_University]]></name>
<description>WIFI</description>
<Point><coordinates>35.21135337,32.10488619,698</coordinates></Point>
<time>2017-12-03 08:56:08</time></Placemark>
</Folder></Document>
</kml>